[
  {
    "icao": "SBAF",
    "iata": "0",
    "name": "Campo Delio Jardim de Mattos Airport",
    "city": "Rio De Janeiro",
    "state": "Rio-de-Janeiro",
    "country": "BR",
    "elevation": 110,
    "lat": -22.8750991821,
    "lon": -43.3847007751,
    "tz": "America\/Sao_Paulo"
  },
  {
    "icao": "SBAN",
    "iata": "",
    "name": "Base Aerea Airport",
    "city": "Anapolis",
    "state": "Goias",
    "country": "BR",
    "elevation": 3731,
    "lat": -16.2292003632,
    "lon": -48.9642982483,
    "tz": "America\/Sao_Paulo"
  },
  {
    "icao": "SBAR",
    "iata": "AJU",
    "name": "Santa Maria Airport",
    "city": "Aracaju",
    "state": "Sergipe",
    "country": "BR",
    "elevation": 23,
    "lat": -10.984000206,
    "lon": -37.0703010559,
    "tz": "America\/Maceio"
  },
  {
    "icao": "SBAT",
    "iata": "AFL",
    "name": "Alta Floresta Airport",
    "city": "Alta Floresta",
    "state": "Mato-Grosso",
    "country": "BR",
    "elevation": 948,
    "lat": -9.8663892746,
    "lon": -56.1049995422,
    "tz": "America\/Cuiaba"
  },
  {
    "icao": "SBAU",
    "iata": "ARU",
    "name": "Aracatuba Airport",
    "city": "Aracatuba",
    "state": "Sao-Paulo",
    "country": "BR",
    "elevation": 1361,
    "lat": -21.1413002014,
    "lon": -50.4247016907,
    "tz": "America\/Sao_Paulo"
  },
  {
    "icao": "SBAX",
    "iata": "AAX",
    "name": "Araxa Airport",
    "city": "Araxa",
    "state": "Minas-Gerais",
    "country": "BR",
    "elevation": 3276,
    "lat": -19.5631999969,
    "lon": -46.9603996277,
    "tz": "America\/Sao_Paulo"
  },
  {
    "icao": "SBBE",
    "iata": "BEL",
    "name": "Val de Cans\/Julio Cezar Ribeiro International Airport",
    "city": "Belem",
    "state": "Para",
    "country": "BR",
    "elevation": 54,
    "lat": -1.3792500496,
    "lon": -48.4762992859,
    "tz": "America\/Belem"
  },
  {
    "icao": "SBBG",
    "iata": "BGX",
    "name": "Comandante Gustavo Kraemer Airport",
    "city": "Bage",
    "state": "Rio-Grande-do-Sul",
    "country": "BR",
    "elevation": 600,
    "lat": -31.390499115,
    "lon": -54.1122016907,
    "tz": "America\/Sao_Paulo"
  },
  {
    "icao": "SBBH",
    "iata": "PLU",
    "name": "Pampulha - Carlos Drummond de Andrade Airport",
    "city": "Belo Horizonte",
    "state": "Minas-Gerais",
    "country": "BR",
    "elevation": 2589,
    "lat": -19.8512001038,
    "lon": -43.9505996704,
    "tz": "America\/Sao_Paulo"
  },
  {
    "icao": "SBBI",
    "iata": "BFH",
    "name": "Bacacheri Airport",
    "city": "Curitiba",
    "state": "Parana",
    "country": "BR",
    "elevation": 3057,
    "lat": -25.4050998688,
    "lon": -49.2319984436,
    "tz": "America\/Sao_Paulo"
  },
  {
    "icao": "SBBQ",
    "iata": "QAK",
    "name": "Major Brigadeiro Doorgal Borges Airport",
    "city": "Barbacena",
    "state": "Minas-Gerais",
    "country": "BR",
    "elevation": 3657,
    "lat": -21.26720047,
    "lon": -43.761100769,
    "tz": "America\/Sao_Paulo"
  },
  {
    "icao": "SBBR",
    "iata": "BSB",
    "name": "Presidente Juscelino Kubistschek International Airport",
    "city": "Brasilia",
    "state": "Federal-District",
    "country": "BR",
    "elevation": 3497,
    "lat": -15.8691673279,
    "lon": -47.9208335876,
    "tz": "America\/Sao_Paulo"
  },
  {
    "icao": "SBBU",
    "iata": "BAU",
    "name": "Bauru Airport",
    "city": "Bauru",
    "state": "Sao-Paulo",
    "country": "BR",
    "elevation": 2025,
    "lat": -22.3449993134,
    "lon": -49.0537986755,
    "tz": "America\/Sao_Paulo"
  },
  {
    "icao": "SBBV",
    "iata": "BVB",
    "name": "Atlas Brasil Cantanhede Airport",
    "city": "Boa Vista",
    "state": "Roraima",
    "country": "BR",
    "elevation": 276,
    "lat": 2.8413889408,
    "lon": -60.6922225952,
    "tz": "America\/Boa_Vista"
  },
  {
    "icao": "SBBW",
    "iata": "BPG",
    "name": "Barra do Garcas Airport",
    "city": "Barra Do Garcas",
    "state": "Mato-Grosso",
    "country": "BR",
    "elevation": 1147,
    "lat": -15.8613004684,
    "lon": -52.3889007568,
    "tz": "America\/Cuiaba"
  },
  {
    "icao": "SBCA",
    "iata": "CAC",
    "name": "Cascavel Airport",
    "city": "Cascavel",
    "state": "Parana",
    "country": "BR",
    "elevation": 2473,
    "lat": -25.0002994537,
    "lon": -53.5008010864,
    "tz": "America\/Sao_Paulo"
  },
  {
    "icao": "SBCB",
    "iata": "CFB",
    "name": "Cabo Frio Airport",
    "city": "Cabo Frio",
    "state": "Rio-de-Janeiro",
    "country": "BR",
    "elevation": 23,
    "lat": -22.9216995239,
    "lon": -42.0742988586,
    "tz": "America\/Sao_Paulo"
  },
  {
    "icao": "SBCC",
    "iata": "",
    "name": "Cachimbo Airport",
    "city": "Novo Progresso",
    "state": "Para",
    "country": "BR",
    "elevation": 1762,
    "lat": -9.3339395523,
    "lon": -54.9654006958,
    "tz": "America\/Santarem"
  },
  {
    "icao": "SBCF",
    "iata": "CNF",
    "name": "Tancredo Neves International Airport",
    "city": "Belo Horizonte",
    "state": "Minas-Gerais",
    "country": "BR",
    "elevation": 2715,
    "lat": -19.6244430542,
    "lon": -43.9719429016,
    "tz": "America\/Sao_Paulo"
  },
  {
    "icao": "SBCG",
    "iata": "CGR",
    "name": "Campo Grande Airport",
    "city": "Campo Grande",
    "state": "Mato-Grosso-do-Sul",
    "country": "BR",
    "elevation": 1833,
    "lat": -20.4687004089,
    "lon": -54.6725006104,
    "tz": "America\/Campo_Grande"
  },
  {
    "icao": "SBCH",
    "iata": "XAP",
    "name": "Chapeco Airport",
    "city": "Chapeco",
    "state": "Santa-Catarina",
    "country": "BR",
    "elevation": 2146,
    "lat": -27.1341991425,
    "lon": -52.6566009521,
    "tz": "America\/Sao_Paulo"
  },
  {
    "icao": "SBCJ",
    "iata": "CKS",
    "name": "Carajas Airport",
    "city": "Carajas",
    "state": "Para",
    "country": "BR",
    "elevation": 2064,
    "lat": -6.1152777672,
    "lon": -50.0013885498,
    "tz": "America\/Belem"
  },
  {
    "icao": "SBCO",
    "iata": "QNS",
    "name": "Canoas Airport",
    "city": "Porto Alegre",
    "state": "Rio-Grande-do-Sul",
    "country": "BR",
    "elevation": 26,
    "lat": -29.9458999634,
    "lon": -51.1444015503,
    "tz": "America\/Sao_Paulo"
  },
  {
    "icao": "SBCP",
    "iata": "CAW",
    "name": "Bartolomeu Lisandro Airport",
    "city": "Campos Dos Goytacazes",
    "state": "Rio-de-Janeiro",
    "country": "BR",
    "elevation": 57,
    "lat": -21.698299408,
    "lon": -41.301700592,
    "tz": "America\/Sao_Paulo"
  },
  {
    "icao": "SBCR",
    "iata": "CMG",
    "name": "Corumba International Airport",
    "city": "Corumba",
    "state": "Mato-Grosso-do-Sul",
    "country": "BR",
    "elevation": 461,
    "lat": -19.0119438171,
    "lon": -57.6713905334,
    "tz": "America\/Campo_Grande"
  },
  {
    "icao": "SBCT",
    "iata": "CWB",
    "name": "Afonso Pena Airport",
    "city": "Curitiba",
    "state": "Parana",
    "country": "BR",
    "elevation": 2988,
    "lat": -25.5284996033,
    "lon": -49.1758003235,
    "tz": "America\/Sao_Paulo"
  },
  {
    "icao": "SBCX",
    "iata": "CXJ",
    "name": "Campo dos Bugres Airport",
    "city": "Caxias Do Sul",
    "state": "Rio-Grande-do-Sul",
    "country": "BR",
    "elevation": 2472,
    "lat": -29.1970996857,
    "lon": -51.1875,
    "tz": "America\/Sao_Paulo"
  },
  {
    "icao": "SBCY",
    "iata": "CGB",
    "name": "Marechal Rondon Airport",
    "city": "Cuiaba",
    "state": "Mato-Grosso",
    "country": "BR",
    "elevation": 617,
    "lat": -15.6528997421,
    "lon": -56.1166992188,
    "tz": "America\/Cuiaba"
  },
  {
    "icao": "SBCZ",
    "iata": "CZS",
    "name": "Cruzeiro do Sul Airport",
    "city": "Cruzeiro Do Sul",
    "state": "Acre",
    "country": "BR",
    "elevation": 637,
    "lat": -7.5999097824,
    "lon": -72.7695007324,
    "tz": "America\/Rio_Branco"
  },
  {
    "icao": "SBDN",
    "iata": "PPB",
    "name": "Presidente Prudente Airport",
    "city": "Presidente Prudente",
    "state": "Sao-Paulo",
    "country": "BR",
    "elevation": 1477,
    "lat": -22.1751003265,
    "lon": -51.4245986938,
    "tz": "America\/Sao_Paulo"
  },
  {
    "icao": "SBEG",
    "iata": "MAO",
    "name": "Eduardo Gomes International Airport",
    "city": "Manaus",
    "state": "Amazonas",
    "country": "BR",
    "elevation": 264,
    "lat": -3.0386099815,
    "lon": -60.0497016907,
    "tz": "America\/Manaus"
  },
  {
    "icao": "SBES",
    "iata": "0",
    "name": "Sao Pedro da Aldeia Airport",
    "city": "Sao Pedro Da Aldeia",
    "state": "Rio-de-Janeiro",
    "country": "BR",
    "elevation": 61,
    "lat": -22.8129005432,
    "lon": -42.0926017761,
    "tz": "America\/Sao_Paulo"
  },
  {
    "icao": "SBFI",
    "iata": "IGU",
    "name": "Cataratas International Airport",
    "city": "Foz Do Iguacu",
    "state": "Parana",
    "country": "BR",
    "elevation": 786,
    "lat": -25.6002788544,
    "lon": -54.4850006104,
    "tz": "America\/Argentina\/Cordoba"
  },
  {
    "icao": "SBFL",
    "iata": "FLN",
    "name": "Hercilio Luz International Airport",
    "city": "Florianopolis",
    "state": "Santa-Catarina",
    "country": "BR",
    "elevation": 16,
    "lat": -27.6702785492,
    "lon": -48.5525016785,
    "tz": "America\/Sao_Paulo"
  },
  {
    "icao": "SBFN",
    "iata": "FEN",
    "name": "Fernando de Noronha Airport",
    "city": "Fernando De Noronha",
    "state": "Pernambuco",
    "country": "BR",
    "elevation": 193,
    "lat": -3.854929924,
    "lon": -32.4233016968,
    "tz": "America\/Noronha"
  },
  {
    "icao": "SBFZ",
    "iata": "FOR",
    "name": "Pinto Martins International Airport",
    "city": "Fortaleza",
    "state": "Ceara",
    "country": "BR",
    "elevation": 82,
    "lat": -3.7762799263,
    "lon": -38.5326004028,
    "tz": "America\/Fortaleza"
  },
  {
    "icao": "SBGL",
    "iata": "GIG",
    "name": "Galeao - Antonio Carlos Jobim International Airport",
    "city": "Rio De Janeiro",
    "state": "Rio-de-Janeiro",
    "country": "BR",
    "elevation": 28,
    "lat": -22.8099994659,
    "lon": -43.2505569458,
    "tz": "America\/Sao_Paulo"
  },
  {
    "icao": "SBGM",
    "iata": "GJM",
    "name": "Guajara-Mirim Airport",
    "city": "Guajara-Mirim",
    "state": "Rondonia",
    "country": "BR",
    "elevation": 478,
    "lat": -10.7863998413,
    "lon": -65.2847976685,
    "tz": "America\/Porto_Velho"
  },
  {
    "icao": "SBGO",
    "iata": "GYN",
    "name": "Santa Genoveva Airport",
    "city": "Goiania",
    "state": "Goias",
    "country": "BR",
    "elevation": 2450,
    "lat": -16.6319999695,
    "lon": -49.2206993103,
    "tz": "America\/Sao_Paulo"
  },
  {
    "icao": "SBGR",
    "iata": "GRU",
    "name": "Guarulhos - Governador Andre Franco Montoro International Airport",
    "city": "Sao Paulo",
    "state": "Sao-Paulo",
    "country": "BR",
    "elevation": 2459,
    "lat": -23.4355564117,
    "lon": -46.4730567932,
    "tz": "America\/Sao_Paulo"
  },
  {
    "icao": "SBGW",
    "iata": "GUJ",
    "name": "Guaratingueta Airport",
    "city": "Guaratingueta",
    "state": "Sao-Paulo",
    "country": "BR",
    "elevation": 1761,
    "lat": -22.7915992737,
    "lon": -45.2047996521,
    "tz": "America\/Sao_Paulo"
  },
  {
    "icao": "SBHT",
    "iata": "ATM",
    "name": "Altamira Airport",
    "city": "Altamira",
    "state": "Para",
    "country": "BR",
    "elevation": 369,
    "lat": -3.2539100647,
    "lon": -52.2540016174,
    "tz": "America\/Santarem"
  },
  {
    "icao": "SBIH",
    "iata": "ITB",
    "name": "Itaituba Airport",
    "city": "Itaituba",
    "state": "Para",
    "country": "BR",
    "elevation": 110,
    "lat": -4.2423400879,
    "lon": -56.0007019043,
    "tz": "America\/Santarem"
  },
  {
    "icao": "SBIL",
    "iata": "IOS",
    "name": "Bahia - Jorge Amado Airport",
    "city": "Ilheus",
    "state": "Bahia",
    "country": "BR",
    "elevation": 15,
    "lat": -14.8159999847,
    "lon": -39.0331993103,
    "tz": "America\/Bahia"
  },
  {
    "icao": "SBIP",
    "iata": "IPN",
    "name": "Usiminas Airport",
    "city": "Ipatinga",
    "state": "Minas-Gerais",
    "country": "BR",
    "elevation": 784,
    "lat": -19.4706993103,
    "lon": -42.4875984192,
    "tz": "America\/Sao_Paulo"
  },
  {
    "icao": "SBIZ",
    "iata": "IMP",
    "name": "Prefeito Renato Moreira Airport",
    "city": "Imperatriz",
    "state": "Maranhao",
    "country": "BR",
    "elevation": 432,
    "lat": -5.5312900543,
    "lon": -47.4599990845,
    "tz": "America\/Fortaleza"
  },
  {
    "icao": "SBJP",
    "iata": "JPA",
    "name": "Presidente Castro Pinto Airport",
    "city": "Joao Pessoa",
    "state": "Paraiba",
    "country": "BR",
    "elevation": 217,
    "lat": -7.1458330154,
    "lon": -34.9486122131,
    "tz": "America\/Fortaleza"
  },
  {
    "icao": "SBJR",
    "iata": "",
    "name": "Jacarepagua - Roberto Marinho Airport",
    "city": "Rio De Janeiro",
    "state": "Rio-de-Janeiro",
    "country": "BR",
    "elevation": 10,
    "lat": -22.9874992371,
    "lon": -43.3699989319,
    "tz": "America\/Sao_Paulo"
  },
  {
    "icao": "SBJU",
    "iata": "JDO",
    "name": "Orlando Bezerra de Menezes Airport",
    "city": "Juazeiro Do Norte",
    "state": "Ceara",
    "country": "BR",
    "elevation": 1392,
    "lat": -7.2189598084,
    "lon": -39.2700996399,
    "tz": "America\/Fortaleza"
  },
  {
    "icao": "SBJV",
    "iata": "JOI",
    "name": "Lauro Carneiro de Loyola Airport",
    "city": "Joinville",
    "state": "Santa-Catarina",
    "country": "BR",
    "elevation": 15,
    "lat": -26.2245006561,
    "lon": -48.7974014282,
    "tz": "America\/Sao_Paulo"
  },
  {
    "icao": "SBKG",
    "iata": "CPV",
    "name": "Presidente Joao Suassuna Airport",
    "city": "Campina Grande",
    "state": "Paraiba",
    "country": "BR",
    "elevation": 1646,
    "lat": -7.2699198723,
    "lon": -35.8964004517,
    "tz": "America\/Fortaleza"
  },
  {
    "icao": "SBKP",
    "iata": "VCP",
    "name": "Viracopos International Airport",
    "city": "Campinas",
    "state": "Sao-Paulo",
    "country": "BR",
    "elevation": 2170,
    "lat": -23.0074005127,
    "lon": -47.1344985962,
    "tz": "America\/Sao_Paulo"
  },
  {
    "icao": "SBLE",
    "iata": "LEC",
    "name": "Chapada Diamantina Airport",
    "city": "Lencois",
    "state": "Bahia",
    "country": "BR",
    "elevation": 1676,
    "lat": -12.4822998047,
    "lon": -41.2770004272,
    "tz": "America\/Bahia"
  },
  {
    "icao": "SBLO",
    "iata": "LDB",
    "name": "Governador Jose Richa Airport",
    "city": "Londrina",
    "state": "Parana",
    "country": "BR",
    "elevation": 1867,
    "lat": -23.3335990906,
    "lon": -51.1301002502,
    "tz": "America\/Sao_Paulo"
  },
  {
    "icao": "SBMA",
    "iata": "MAB",
    "name": "Maraba Airport",
    "city": "Maraba",
    "state": "Para",
    "country": "BR",
    "elevation": 357,
    "lat": -5.3685898781,
    "lon": -49.1380004883,
    "tz": "America\/Belem"
  },
  {
    "icao": "SBME",
    "iata": "MEA",
    "name": "Macae Airport",
    "city": "Macae",
    "state": "Rio-de-Janeiro",
    "country": "BR",
    "elevation": 8,
    "lat": -22.343000412,
    "lon": -41.7659988403,
    "tz": "America\/Sao_Paulo"
  },
  {
    "icao": "SBMG",
    "iata": "MGF",
    "name": "Regional de Maringa - Silvio Nane Junior Airport",
    "city": "Maringa",
    "state": "Parana",
    "country": "BR",
    "elevation": 1788,
    "lat": -23.4794445038,
    "lon": -52.01222229,
    "tz": "America\/Sao_Paulo"
  },
  {
    "icao": "SBMK",
    "iata": "MOC",
    "name": "Mario Ribeiro Airport",
    "city": "Montes Claros",
    "state": "Minas-Gerais",
    "country": "BR",
    "elevation": 2191,
    "lat": -16.7068996429,
    "lon": -43.818901062,
    "tz": "America\/Sao_Paulo"
  },
  {
    "icao": "SBML",
    "iata": "MII",
    "name": "Marilia Airport",
    "city": "Marilia",
    "state": "Sao-Paulo",
    "country": "BR",
    "elevation": 2122,
    "lat": -22.1968994141,
    "lon": -49.926399231,
    "tz": "America\/Sao_Paulo"
  },
  {
    "icao": "SBMN",
    "iata": "PLL",
    "name": "Ponta Pelada Airport",
    "city": "Manaus",
    "state": "Amazonas",
    "country": "BR",
    "elevation": 267,
    "lat": -3.1460399628,
    "lon": -59.9863014221,
    "tz": "America\/Manaus"
  },
  {
    "icao": "SBMO",
    "iata": "MCZ",
    "name": "Zumbi dos Palmares Airport",
    "city": "Maceio",
    "state": "Alagoas",
    "country": "BR",
    "elevation": 387,
    "lat": -9.5108098984,
    "lon": -35.7916984558,
    "tz": "America\/Maceio"
  },
  {
    "icao": "SBMQ",
    "iata": "MCP",
    "name": "Alberto Alcolumbre Airport",
    "city": "Macapa",
    "state": "Amapa",
    "country": "BR",
    "elevation": 56,
    "lat": 0.0506640002,
    "lon": -51.0722007751,
    "tz": "America\/Belem"
  },
  {
    "icao": "SBMS",
    "iata": "MVF",
    "name": "Dix-Sept Rosado Airport",
    "city": "Mossoro",
    "state": "Rio-Grande-do-Norte",
    "country": "BR",
    "elevation": 76,
    "lat": -5.2019200325,
    "lon": -37.3642997742,
    "tz": "America\/Fortaleza"
  },
  {
    "icao": "SBMT",
    "iata": "SAO",
    "name": "Campo de Marte Airport",
    "city": "Sao Paulo",
    "state": "Sao-Paulo",
    "country": "BR",
    "elevation": 2368,
    "lat": -23.5090999603,
    "lon": -46.6377983093,
    "tz": "America\/Sao_Paulo"
  },
  {
    "icao": "SBMY",
    "iata": "MNX",
    "name": "Manicore Airport",
    "city": "Manicore",
    "state": "Amazonas",
    "country": "BR",
    "elevation": 174,
    "lat": -5.8113799095,
    "lon": -61.278301239,
    "tz": "America\/Manaus"
  },
  {
    "icao": "SBNF",
    "iata": "NVT",
    "name": "Ministro Victor Konder International Airport",
    "city": "Navegantes",
    "state": "Santa-Catarina",
    "country": "BR",
    "elevation": 18,
    "lat": -26.8799991608,
    "lon": -48.6514015198,
    "tz": "America\/Sao_Paulo"
  },
  {
    "icao": "SBNM",
    "iata": "GEL",
    "name": "Santo Angelo Airport",
    "city": "Santo Angelo",
    "state": "Rio-Grande-do-Sul",
    "country": "BR",
    "elevation": 1056,
    "lat": -28.2817001343,
    "lon": -54.1691017151,
    "tz": "America\/Sao_Paulo"
  },
  {
    "icao": "SBNT",
    "iata": "NAT",
    "name": "Augusto Severo Airport",
    "city": "Natal",
    "state": "Rio-Grande-do-Norte",
    "country": "BR",
    "elevation": 169,
    "lat": -5.9114198685,
    "lon": -35.2476997375,
    "tz": "America\/Fortaleza"
  },
  {
    "icao": "SBOI",
    "iata": "OYK",
    "name": "Oiapoque Airport",
    "city": "Oiapoque",
    "state": "",
    "country": "BR",
    "elevation": 63,
    "lat": 3.8554899693,
    "lon": -51.7969017029,
    "tz": "America\/Belem"
  },
  {
    "icao": "SBPA",
    "iata": "POA",
    "name": "Salgado Filho Airport",
    "city": "Porto Alegre",
    "state": "Rio-Grande-do-Sul",
    "country": "BR",
    "elevation": 11,
    "lat": -29.9944000244,
    "lon": -51.1713981628,
    "tz": "America\/Sao_Paulo"
  },
  {
    "icao": "SBPB",
    "iata": "PHB",
    "name": "Prefeito Doutor Joao Silva Filho Airport",
    "city": "Parnaiba",
    "state": "Piaui",
    "country": "BR",
    "elevation": 16,
    "lat": -2.8937499523,
    "lon": -41.7319984436,
    "tz": "America\/Fortaleza"
  },
  {
    "icao": "SBPJ",
    "iata": "PMW",
    "name": "Brigadeiro Lysias Rodrigues Airport",
    "city": "Palmas",
    "state": "Tocantins",
    "country": "BR",
    "elevation": 774,
    "lat": -10.2915000916,
    "lon": -48.3569984436,
    "tz": "America\/Araguaina"
  },
  {
    "icao": "SBPK",
    "iata": "PET",
    "name": "Pelotas Airport",
    "city": "Pelotas",
    "state": "Rio-Grande-do-Sul",
    "country": "BR",
    "elevation": 59,
    "lat": -31.7183990479,
    "lon": -52.3277015686,
    "tz": "America\/Sao_Paulo"
  },
  {
    "icao": "SBPL",
    "iata": "PNZ",
    "name": "Senador Nilo Coelho Airport",
    "city": "Petrolina",
    "state": "Pernambuco",
    "country": "BR",
    "elevation": 1263,
    "lat": -9.3624095917,
    "lon": -40.5690994263,
    "tz": "America\/Recife"
  },
  {
    "icao": "SBPP",
    "iata": "PMG",
    "name": "Ponta Pora Airport",
    "city": "Ponta Pora",
    "state": "Mato-Grosso-do-Sul",
    "country": "BR",
    "elevation": 2156,
    "lat": -22.5496006012,
    "lon": -55.7025985718,
    "tz": "America\/Asuncion"
  },
  {
    "icao": "SBPS",
    "iata": "BPS",
    "name": "Porto Seguro Airport",
    "city": "Porto Seguro",
    "state": "Bahia",
    "country": "BR",
    "elevation": 168,
    "lat": -16.4386005402,
    "lon": -39.0808982849,
    "tz": "America\/Bahia"
  },
  {
    "icao": "SBPV",
    "iata": "PVH",
    "name": "Governador Jorge Teixeira de Oliveira Airport",
    "city": "Porto Velho",
    "state": "Rondonia",
    "country": "BR",
    "elevation": 290,
    "lat": -8.7092895508,
    "lon": -63.9023017883,
    "tz": "America\/Porto_Velho"
  },
  {
    "icao": "SBRB",
    "iata": "RBR",
    "name": "Placido de Castro Airport",
    "city": "Rio Branco",
    "state": "Acre",
    "country": "BR",
    "elevation": 633,
    "lat": -9.868888855,
    "lon": -67.8980560303,
    "tz": "America\/Rio_Branco"
  },
  {
    "icao": "SBRF",
    "iata": "REC",
    "name": "Guararapes - Gilberto Freyre International Airport",
    "city": "Recife",
    "state": "Pernambuco",
    "country": "BR",
    "elevation": 33,
    "lat": -8.1264896393,
    "lon": -34.9235992432,
    "tz": "America\/Recife"
  },
  {
    "icao": "SBRJ",
    "iata": "SDU",
    "name": "Santos Dumont Airport",
    "city": "Rio De Janeiro",
    "state": "Rio-de-Janeiro",
    "country": "BR",
    "elevation": 11,
    "lat": -22.9104995728,
    "lon": -43.1631011963,
    "tz": "America\/Sao_Paulo"
  },
  {
    "icao": "SBRP",
    "iata": "RAO",
    "name": "Leite Lopes Airport",
    "city": "Ribeirao Preto",
    "state": "Sao-Paulo",
    "country": "BR",
    "elevation": 1806,
    "lat": -21.1363887787,
    "lon": -47.7766685486,
    "tz": "America\/Sao_Paulo"
  },
  {
    "icao": "SBSC",
    "iata": "SNZ",
    "name": "Santa Cruz Airport",
    "city": "Rio De Janeiro",
    "state": "Rio-de-Janeiro",
    "country": "BR",
    "elevation": 10,
    "lat": -22.9323997498,
    "lon": -43.7191009521,
    "tz": "America\/Sao_Paulo"
  },
  {
    "icao": "SBSJ",
    "iata": "SJK",
    "name": "Professor Urbano Ernesto Stumpf Airport",
    "city": "Sao Jose Dos Campos",
    "state": "Sao-Paulo",
    "country": "BR",
    "elevation": 2120,
    "lat": -23.2292003632,
    "lon": -45.8614997864,
    "tz": "America\/Sao_Paulo"
  },
  {
    "icao": "SBSL",
    "iata": "SLZ",
    "name": "Marechal Cunha Machado International Airport",
    "city": "Sao Luis",
    "state": "Maranhao",
    "country": "BR",
    "elevation": 178,
    "lat": -2.5853600502,
    "lon": -44.2341003418,
    "tz": "America\/Fortaleza"
  },
  {
    "icao": "SBSM",
    "iata": "RIA",
    "name": "Santa Maria Airport",
    "city": "Santa Maria",
    "state": "Rio-Grande-do-Sul",
    "country": "BR",
    "elevation": 287,
    "lat": -29.7113990784,
    "lon": -53.6882019043,
    "tz": "America\/Sao_Paulo"
  },
  {
    "icao": "SBSN",
    "iata": "STM",
    "name": "Maestro Wilson Fonseca Airport",
    "city": "Santarem",
    "state": "Para",
    "country": "BR",
    "elevation": 198,
    "lat": -2.4247219563,
    "lon": -54.7858314514,
    "tz": "America\/Santarem"
  },
  {
    "icao": "SBSP",
    "iata": "CGH",
    "name": "Congonhas Airport",
    "city": "Sao Paulo",
    "state": "Sao-Paulo",
    "country": "BR",
    "elevation": 2631,
    "lat": -23.6261100769,
    "lon": -46.6563873291,
    "tz": "America\/Sao_Paulo"
  },
  {
    "icao": "SBSR",
    "iata": "SJP",
    "name": "Sao Jose do Rio Preto Airport",
    "city": "Sao Jose Do Rio Preto",
    "state": "Sao-Paulo",
    "country": "BR",
    "elevation": 1784,
    "lat": -20.8166007996,
    "lon": -49.40650177,
    "tz": "America\/Sao_Paulo"
  },
  {
    "icao": "SBST",
    "iata": "SSZ",
    "name": "Base Aerea de Santos Airport",
    "city": "Guaruja",
    "state": "Sao-Paulo",
    "country": "BR",
    "elevation": 10,
    "lat": -23.9280567169,
    "lon": -46.2997207642,
    "tz": "America\/Sao_Paulo"
  },
  {
    "icao": "SBSV",
    "iata": "SSA",
    "name": "Deputado Luiz Eduardo Magalhaes International Airport",
    "city": "Salvador",
    "state": "Bahia",
    "country": "BR",
    "elevation": 64,
    "lat": -12.9086112976,
    "lon": -38.3224983215,
    "tz": "America\/Bahia"
  },
  {
    "icao": "SBTA",
    "iata": "QHP",
    "name": "Base de Aviacao de Taubate Airport",
    "city": "Taubate",
    "state": "Sao-Paulo",
    "country": "BR",
    "elevation": 1908,
    "lat": -23.0401000977,
    "lon": -45.5159988403,
    "tz": "America\/Sao_Paulo"
  },
  {
    "icao": "SBTE",
    "iata": "THE",
    "name": "Senador Petronio Portela Airport",
    "city": "Teresina",
    "state": "Piaui",
    "country": "BR",
    "elevation": 219,
    "lat": -5.0599398613,
    "lon": -42.8235015869,
    "tz": "America\/Fortaleza"
  },
  {
    "icao": "SBTF",
    "iata": "TFF",
    "name": "Tefe Airport",
    "city": "Tefe",
    "state": "Amazonas",
    "country": "BR",
    "elevation": 188,
    "lat": -3.3829400539,
    "lon": -64.7240982056,
    "tz": "America\/Manaus"
  },
  {
    "icao": "SBTT",
    "iata": "TBT",
    "name": "Tabatinga Airport",
    "city": "Tabatinga",
    "state": "Amazonas",
    "country": "BR",
    "elevation": 279,
    "lat": -4.2556700706,
    "lon": -69.935798645,
    "tz": "America\/Bogota"
  },
  {
    "icao": "SBTU",
    "iata": "TUR",
    "name": "Tucurui Airport",
    "city": "Tucurui",
    "state": "Para",
    "country": "BR",
    "elevation": 830,
    "lat": -3.7860100269,
    "lon": -49.7202987671,
    "tz": "America\/Belem"
  },
  {
    "icao": "SBUA",
    "iata": "SJL",
    "name": "Sao Gabriel da Cachoeira Airport",
    "city": "Sao Gabriel Da Cachoeira",
    "state": "Amazonas",
    "country": "BR",
    "elevation": 251,
    "lat": -0.14835,
    "lon": -66.9855,
    "tz": "America\/Manaus"
  },
  {
    "icao": "SBUF",
    "iata": "PAV",
    "name": "Paulo Afonso Airport",
    "city": "Paulo Afonso",
    "state": "Bahia",
    "country": "BR",
    "elevation": 883,
    "lat": -9.4008798599,
    "lon": -38.2505989075,
    "tz": "America\/Bahia"
  },
  {
    "icao": "SBUL",
    "iata": "UDI",
    "name": "Ten. Cel. Aviador Cesar Bombonato Airport",
    "city": "Uberlandia",
    "state": "Minas-Gerais",
    "country": "BR",
    "elevation": 3094,
    "lat": -18.8836116791,
    "lon": -48.225276947,
    "tz": "America\/Sao_Paulo"
  },
  {
    "icao": "SBUR",
    "iata": "UBA",
    "name": "Mario de Almeida Franco Airport",
    "city": "Uberaba",
    "state": "Minas-Gerais",
    "country": "BR",
    "elevation": 2655,
    "lat": -19.7647228241,
    "lon": -47.9661102295,
    "tz": "America\/Sao_Paulo"
  },
  {
    "icao": "SBVH",
    "iata": "BVH",
    "name": "Vilhena Airport",
    "city": "Vilhena",
    "state": "Rondonia",
    "country": "BR",
    "elevation": 2018,
    "lat": -12.6943998337,
    "lon": -60.0983009338,
    "tz": "America\/Cuiaba"
  },
  {
    "icao": "SBVT",
    "iata": "VIX",
    "name": "Eurico de Aguiar Salles Airport",
    "city": "Vitoria",
    "state": "Espirito-Santo",
    "country": "BR",
    "elevation": 11,
    "lat": -20.2580566406,
    "lon": -40.2863883972,
    "tz": "America\/Sao_Paulo"
  },
  {
    "icao": "SBYS",
    "iata": "QPS",
    "name": "Campo Fontenelle Airport",
    "city": "Pirassununga",
    "state": "Sao-Paulo",
    "country": "BR",
    "elevation": 1968,
    "lat": -21.9846000671,
    "lon": -47.3348007202,
    "tz": "America\/Sao_Paulo"
  }
]